{
  "type": "FeatureCollection",
  "features": [
    {
      "type": "Feature",
      "properties": {
        "name": "Rio de Janeiro"
      },
      "geometry": {
        "type": "Point",
        "coordinates": [-43.1729, -22.9068]
      }
    },
    {
      "type": "Feature",
      "properties": {
        "name": "New York"
      },
      "geometry": {
        "type": "Point",
        "coordinates": [-74.006, 40.7128]
      }
    },
    {
      "type": "Feature",
      "properties": {
        "name": "Tokio"
      },
      "geometry": {
        "type": "Point",
        "coordinates": [139.6917, 35.6895]
      }
    },
    {
      "type": "Feature",
      "properties": {
        "name": "London"
      },
      "geometry": {
        "type": "Point",
        "coordinates": [-0.1276, 51.5074]
      }
    },
    {
      "type": "Feature",
      "properties": {
        "name": "Paris"
      },
      "geometry": {
        "type": "Point",
        "coordinates": [2.3522, 48.8566]
      }
    },
    {
      "type": "Feature",
      "properties": {
        "name": "Cape Town"
      },
      "geometry": {
        "type": "Point",
        "coordinates": [18.4241, -33.9249]
      }
    },
    {
      "type": "Feature",
      "properties": {
        "name": "Sydney"
      },
      "geometry": {
        "type": "Point",
        "coordinates": [151.2093, -33.8688]
      }
    },
    {
      "type": "Feature",
      "properties": {
        "name": "Moscow"
      },
      "geometry": {
        "type": "Point",
        "coordinates": [37.6173, 55.7558]
      }
    },
    {
      "type": "Feature",
      "properties": {
        "name": "Cairo"
      },
      "geometry": {
        "type": "Point",
        "coordinates": [31.2357, 30.0444]
      }
    },
    {
      "type": "Feature",
      "properties": {
        "name": "Sao Paulo"
      },
      "geometry": {
        "type": "Point",
        "coordinates": [-46.6333, -23.5505]
      }
    },
    {
      "type": "Feature",
      "properties": {
        "name": "Brasilia"
      },
      "geometry": {
        "type": "Point",
        "coordinates": [-47.9292, -15.7801]
      }
    },
    {
      "type": "Feature",
      "properties": {
        "name": "Salvador"
      },
      "geometry": {
        "type": "Point",
        "coordinates": [-38.5267, -12.9714]
      }
    }
  ]
}
