{
  "type": "FeatureCollection",
  "features": [
    {
      "type": "Feature",
      "properties": {
        "name": "Rio de Janeiro",
        "size": 500000
      },
      "geometry": {
        "type": "Point",
        "coordinates": [-43.1729, -22.9068]
      }
    },
    {
      "type": "Feature",
      "properties": {
        "name": "New York",
        "size": 700000
      },
      "geometry": {
        "type": "Point",
        "coordinates": [-74.006, 40.7128]
      }
    },
    {
      "type": "Feature",
      "properties": {
        "name": "Tokio",
        "size": 800000
      },
      "geometry": {
        "type": "Point",
        "coordinates": [139.6917, 35.6895]
      }
    },
    {
      "type": "Feature",
      "properties": {
        "name": "London",
        "size": 600000
      },
      "geometry": {
        "type": "Point",
        "coordinates": [-0.1276, 51.5074]
      }
    },
    {
      "type": "Feature",
      "properties": {
        "name": "Paris",
        "size": 550000
      },
      "geometry": {
        "type": "Point",
        "coordinates": [2.3522, 48.8566]
      }
    },
    {
      "type": "Feature",
      "properties": {
        "name": "Cape Town",
        "size": 450000
      },
      "geometry": {
        "type": "Point",
        "coordinates": [18.4241, -33.9249]
      }
    },
    {
      "type": "Feature",
      "properties": {
        "name": "Sydney",
        "size": 500000
      },
      "geometry": {
        "type": "Point",
        "coordinates": [151.2093, -33.8688]
      }
    },
    {
      "type": "Feature",
      "properties": {
        "name": "Moscow",
        "size": 650000
      },
      "geometry": {
        "type": "Point",
        "coordinates": [37.6173, 55.7558]
      }
    },
    {
      "type": "Feature",
      "properties": {
        "name": "Cairo",
        "size": 400000
      },
      "geometry": {
        "type": "Point",
        "coordinates": [31.2357, 30.0444]
      }
    },
    {
      "type": "Feature",
      "properties": {
        "name": "Sao Paulo",
        "size": 300000
      },
      "geometry": {
        "type": "Point",
        "coordinates": [-46.6333, -23.5505]
      }
    },
    {
      "type": "Feature",
      "properties": {
        "name": "Brasilia",
        "size": 500000
      },
      "geometry": {
        "type": "Point",
        "coordinates": [-47.9292, -15.7801]
      }
    },
    {
      "type": "Feature",
      "properties": {
        "name": "Salvador",
        "size": 400000
      },
      "geometry": {
        "type": "Point",
        "coordinates": [-38.5267, -12.9714]
      }
    }
  ]
}
